{"type":"FeatureCollection", "features": [
{"type":"Feature","geometry":{"type":"Point","coordinates":[-73.983094,40.768469]},"properties":{"OBJECTID":1,"Boro":"MANHATTAN","Address":"10 COLUMBUS CIRCLE","JobType":"A2","JobType_X":-134.999952253,"JobType_Y":-74.8006605422,"BldgType":"BUSINESS","EstCost":265,"Lat":40.768469,"Long":-73.983094}},
{"type":"Feature","geometry":{"type":"Point","coordinates":[-74.007039,40.726176]},"properties":{"OBJECTID":2,"Boro":"MANHATTAN","Address":"310 HUDSON STREET","JobType":"NB","JobType_X":0,"JobType_Y":0,"BldgType":"BUSINESS","EstCost":189,"Lat":40.726176,"Long":-74.007039}},
{"type":"Feature","geometry":{"type":"Point","coordinates":[-73.992132,40.749981]},"properties":{"OBJECTID":3,"Boro":"MANHATTAN","Address":"2 PENN PLAZA","JobType":"A1","JobType_X":-134.999976127,"JobType_Y":-74.8006542803,"BldgType":"BUSINESS","EstCost":160,"Lat":40.749981,"Long":-73.992132}},
{"type":"Feature","geometry":{"type":"Point","coordinates":[-73.997704,40.752677]},"properties":{"OBJECTID":4,"Boro":"MANHATTAN","Address":"400 WEST 33RD STREET","JobType":"A2","JobType_X":-134.999952253,"JobType_Y":-74.8006605422,"BldgType":"BUSINESS","EstCost":157,"Lat":40.752677,"Long":-73.997704}},
{"type":"Feature","geometry":{"type":"Point","coordinates":[-73.96979,40.681024]},"properties":{"OBJECTID":5,"Boro":"BROOKLYN","Address":"595 DEAN STREET","JobType":"NB","JobType_X":0,"JobType_Y":0,"BldgType":"RESIDENTIAL: APARTMENT HOUSES","EstCost":136,"Lat":40.681024,"Long":-73.96979}},
{"type":"Feature","geometry":{"type":"Point","coordinates":[-73.986901,40.740863]},"properties":{"OBJECTID":6,"Boro":"MANHATTAN","Address":"1 MADISON AVENUE","JobType":"A1","JobType_X":-134.999976127,"JobType_Y":-74.8006542803,"BldgType":"BUSINESS","EstCost":128,"Lat":40.740863,"Long":-73.986901}},
{"type":"Feature","geometry":{"type":"Point","coordinates":[-73.840386,40.830857]},"properties":{"OBJECTID":7,"Boro":"BRONX","Address":"2505 BRUCKNER BOULEVARD","JobType":"NB","JobType_X":0,"JobType_Y":0,"BldgType":"STORAGE: MODERATE HAZARD","EstCost":118,"Lat":40.830857,"Long":-73.840386}},
{"type":"Feature","geometry":{"type":"Point","coordinates":[-73.933865,40.591295]},"properties":{"OBJECTID":8,"Boro":"BROOKLYN","Address":"2502 KNAPP STREET","JobType":"A2","JobType_X":-134.999952253,"JobType_Y":-74.8006605422,"BldgType":"FACTORY/INDUSTRIAL: MODERATE HAZARD","EstCost":109,"Lat":40.591295,"Long":-73.933865}},
{"type":"Feature","geometry":{"type":"Point","coordinates":[-73.96116638,40.73928833]},"properties":{"OBJECTID":9,"Boro":"QUEENS","Address":"1-15 57 AVENUE","JobType":"NB","JobType_X":0,"JobType_Y":0,"BldgType":"RESIDENTIAL: APARTMENT HOUSES","EstCost":105,"Lat":40.73928833,"Long":-73.96116638}},
{"type":"Feature","geometry":{"type":"Point","coordinates":[-73.971036,40.76043]},"properties":{"OBJECTID":10,"Boro":"MANHATTAN","Address":"425 PARK AVENUE","JobType":"A2","JobType_X":-134.999952253,"JobType_Y":-74.8006605422,"BldgType":"BUSINESS","EstCost":95,"Lat":40.76043,"Long":-73.971036}},
{"type":"Feature","geometry":{"type":"Point","coordinates":[-73.978553,40.752966]},"properties":{"OBJECTID":11,"Boro":"MANHATTAN","Address":"10 VANDERBILT AVENUE","JobType":"A2","JobType_X":-134.999952253,"JobType_Y":-74.8006605422,"BldgType":"BUSINESS","EstCost":93,"Lat":40.752966,"Long":-73.978553}},
{"type":"Feature","geometry":{"type":"Point","coordinates":[-73.981407,40.783301]},"properties":{"OBJECTID":12,"Boro":"MANHATTAN","Address":"370 WEST END AVENUE","JobType":"A1","JobType_X":-134.999976127,"JobType_Y":-74.8006542803,"BldgType":"RESIDENTIAL: APARTMENT HOUSES","EstCost":87,"Lat":40.783301,"Long":-73.981407}},
{"type":"Feature","geometry":{"type":"Point","coordinates":[-73.796022,40.703853]},"properties":{"OBJECTID":13,"Boro":"QUEENS","Address":"92-33 GUY R BREWER BLVD","JobType":"NB","JobType_X":0,"JobType_Y":0,"BldgType":"RESIDENTIAL: APARTMENT HOUSES","EstCost":80,"Lat":40.703853,"Long":-73.796022}},
{"type":"Feature","geometry":{"type":"Point","coordinates":[-73.931639,40.820185]},"properties":{"OBJECTID":14,"Boro":"BRONX","Address":"575 EXTERIOR STREET","JobType":"NB","JobType_X":0,"JobType_Y":0,"BldgType":"RESIDENTIAL: APARTMENT HOUSES","EstCost":78,"Lat":40.820185,"Long":-73.931639}},
{"type":"Feature","geometry":{"type":"Point","coordinates":[-73.959884,40.666951]},"properties":{"OBJECTID":15,"Boro":"BROOKLYN","Address":"54 CROWN STREET","JobType":"NB","JobType_X":0,"JobType_Y":0,"BldgType":"RESIDENTIAL: APARTMENT HOUSES","EstCost":78,"Lat":40.666951,"Long":-73.959884}},
{"type":"Feature","geometry":{"type":"Point","coordinates":[-74.006194,40.752237]},"properties":{"OBJECTID":16,"Boro":"MANHATTAN","Address":"224 12TH AVENUE","JobType":"A1","JobType_X":-134.999976127,"JobType_Y":-74.8006542803,"BldgType":"BUSINESS","EstCost":73,"Lat":40.752237,"Long":-74.006194}},
{"type":"Feature","geometry":{"type":"Point","coordinates":[-73.987455,40.745806]},"properties":{"OBJECTID":17,"Boro":"MANHATTAN","Address":"7 WEST 29TH STREET","JobType":"NB","JobType_X":0,"JobType_Y":0,"BldgType":"BUSINESS","EstCost":73,"Lat":40.745806,"Long":-73.987455}},
{"type":"Feature","geometry":{"type":"Point","coordinates":[-73.99225002,40.74976966]},"properties":{"OBJECTID":18,"Boro":"MANHATTAN","Address":"2 PENN PLAZA","JobType":"A2","JobType_X":-134.999952253,"JobType_Y":-74.8006605422,"BldgType":"BUSINESS","EstCost":72,"Lat":40.74976966,"Long":-73.99225002}},
{"type":"Feature","geometry":{"type":"Point","coordinates":[-74.010972,40.705541]},"properties":{"OBJECTID":19,"Boro":"MANHATTAN","Address":"45 BROAD STREET","JobType":"NB","JobType_X":0,"JobType_Y":0,"BldgType":"RESIDENTIAL: APARTMENT HOUSES","EstCost":71,"Lat":40.705541,"Long":-74.010972}},
{"type":"Feature","geometry":{"type":"Point","coordinates":[-73.999787,40.751151]},"properties":{"OBJECTID":20,"Boro":"MANHATTAN","Address":"341 9TH AVENUE","JobType":"A1","JobType_X":-134.999976127,"JobType_Y":-74.8006542803,"BldgType":"BUSINESS","EstCost":64,"Lat":40.751151,"Long":-73.999787}}
]}
