{"type":"FeatureCollection", "features": [
{"type":"Feature","geometry":{"type":"Point","coordinates":[-73.997957,40.752087]},"properties":{"OBJECTID":1,"Boro":"Manhattan","Address":"401 WEST 31ST STREET","JobType":"NB","BldgType":"BUSINESS","EstCost":270,"Lat":40.752087,"Long_":-73.997957}},
{"type":"Feature","geometry":{"type":"Point","coordinates":[-74.004988,40.753234]},"properties":{"OBJECTID":2,"Boro":"Manhattan","Address":"601 WEST 29TH STREET","JobType":"NB","BldgType":"RESIDENTIAL: APARTMENT HOUSES","EstCost":139,"Lat":40.753234,"Long_":-74.004988}},
{"type":"Feature","geometry":{"type":"Point","coordinates":[-73.974174,40.682718]},"properties":{"OBJECTID":3,"Boro":"Brooklyn","Address":"18 SIXTH AVENUE","JobType":"NB","BldgType":"RESIDENTIAL: APARTMENT HOUSES","EstCost":123,"Lat":40.682718,"Long_":-73.974174}},
{"type":"Feature","geometry":{"type":"Point","coordinates":[-73.806194,40.69954]},"properties":{"OBJECTID":4,"Boro":"Queens","Address":"147-25 94 AVENUE","JobType":"NB","BldgType":"RESIDENTIAL: APARTMENT HOUSES","EstCost":81,"Lat":40.69954,"Long_":-73.806194}},
{"type":"Feature","geometry":{"type":"Point","coordinates":[-73.998892,40.755619]},"properties":{"OBJECTID":5,"Boro":"Manhattan","Address":"451 10TH AVENUE","JobType":"NB","BldgType":"RESIDENTIAL: APARTMENT HOUSES","EstCost":76,"Lat":40.755619,"Long_":-73.998892}},
{"type":"Feature","geometry":{"type":"Point","coordinates":[-74.010599,40.743561]},"properties":{"OBJECTID":6,"Boro":"Manhattan","Address":"1 PIER 57","JobType":"A2","BldgType":"BUSINESS","EstCost":75,"Lat":40.743561,"Long_":-74.010599}},
{"type":"Feature","geometry":{"type":"Point","coordinates":[-73.931915,40.808674]},"properties":{"OBJECTID":7,"Boro":"Bronx","Address":"2401 THIRD AVENUE","JobType":"NB","BldgType":"RESIDENTIAL: APARTMENT HOUSES","EstCost":72,"Lat":40.808674,"Long_":-73.931915}},
{"type":"Feature","geometry":{"type":"Point","coordinates":[-73.999643,40.758474]},"properties":{"OBJECTID":8,"Boro":"Manhattan","Address":"555 WEST 38TH STREET","JobType":"NB","BldgType":"RESIDENTIAL: APARTMENT HOUSES","EstCost":69,"Lat":40.758474,"Long_":-73.999643}},
{"type":"Feature","geometry":{"type":"Point","coordinates":[-73.979954,40.691478]},"properties":{"OBJECTID":9,"Boro":"Brooklyn","Address":"196 WILLOUGHBY STREET","JobType":"NB","BldgType":"RESIDENTIAL: APARTMENT HOUSES","EstCost":63,"Lat":40.691478,"Long_":-73.979954}},
{"type":"Feature","geometry":{"type":"Point","coordinates":[-73.958629,40.737241]},"properties":{"OBJECTID":10,"Boro":"Brooklyn","Address":"1 BELL SLIP","JobType":"NB","BldgType":"RESIDENTIAL: APARTMENT HOUSES","EstCost":57,"Lat":40.737241,"Long_":-73.958629}},
{"type":"Feature","geometry":{"type":"Point","coordinates":[-73.990839,40.7022]},"properties":{"OBJECTID":11,"Boro":"Brooklyn","Address":"60 FRONT STREET","JobType":"NB","BldgType":"RESIDENTIAL: APARTMENT HOUSES","EstCost":55,"Lat":40.7022,"Long_":-73.990839}},
{"type":"Feature","geometry":{"type":"Point","coordinates":[-73.973954,40.681705]},"properties":{"OBJECTID":12,"Boro":"Brooklyn","Address":"37 6TH AVENUE","JobType":"NB","BldgType":"RESIDENTIAL: APARTMENT HOUSES","EstCost":55,"Lat":40.681705,"Long_":-73.973954}},
{"type":"Feature","geometry":{"type":"Point","coordinates":[-73.988763,40.737701]},"properties":{"OBJECTID":13,"Boro":"Manhattan","Address":"230 PARK AVENUE SOUTH","JobType":"A2","BldgType":"BUSINESS","EstCost":53,"Lat":40.737701,"Long_":-73.988763}},
{"type":"Feature","geometry":{"type":"Point","coordinates":[-73.962137,40.811424]},"properties":{"OBJECTID":14,"Boro":"Manhattan","Address":"100 CLAREMONT AVENUE","JobType":"NB","BldgType":"RESIDENTIAL: APARTMENT HOUSES","EstCost":51,"Lat":40.811424,"Long_":-73.962137}},
{"type":"Feature","geometry":{"type":"Point","coordinates":[-73.857579,40.727922]},"properties":{"OBJECTID":15,"Boro":"Queens","Address":"97-12 65 ROAD","JobType":"NB","BldgType":"RESIDENTIAL: APARTMENT HOUSES","EstCost":51,"Lat":40.727922,"Long_":-73.857579}},
{"type":"Feature","geometry":{"type":"Point","coordinates":[-73.876946,40.679694]},"properties":{"OBJECTID":16,"Boro":"Brooklyn","Address":"265 LOGAN STREET","JobType":"NB","BldgType":"RESIDENTIAL: APARTMENT HOUSES","EstCost":48,"Lat":40.679694,"Long_":-73.876946}},
{"type":"Feature","geometry":{"type":"Point","coordinates":[-73.991514,40.730598]},"properties":{"OBJECTID":17,"Boro":"Manhattan","Address":"770 BROADWAY","JobType":"A2","BldgType":"BUSINESS","EstCost":48,"Lat":40.730598,"Long_":-73.991514}},
{"type":"Feature","geometry":{"type":"Point","coordinates":[-73.971527,40.759005]},"properties":{"OBJECTID":18,"Boro":"Manhattan","Address":"399 PARK AVENUE","JobType":"A2","BldgType":"COMMERCIAL BUILDINGS - OLD CODE","EstCost":47,"Lat":40.759005,"Long_":-73.971527}},
{"type":"Feature","geometry":{"type":"Point","coordinates":[-73.928521,40.816988]},"properties":{"OBJECTID":19,"Boro":"Bronx","Address":"425 GRAND CONCOURSE","JobType":"NB","BldgType":"RESIDENTIAL: APARTMENT HOUSES","EstCost":46,"Lat":40.816988,"Long_":-73.928521}},
{"type":"Feature","geometry":{"type":"Point","coordinates":[-73.875092,40.681145]},"properties":{"OBJECTID":20,"Boro":"Brooklyn","Address":"110 DINSMORE PLACE","JobType":"NB","BldgType":"RESIDENTIAL: APARTMENT HOUSES","EstCost":45,"Lat":40.681145,"Long_":-73.875092}}
]}
